{
    "10009": {
        "NAME": "Bt Merah Int",
        "Longitude": 103.81722,
        "Latitude": 1.2821,
        "BusServices": [
            "123",
            "123",
            "131",
            "131",
            "132",
            "132",
            "139",
            "139",
            "153",
            "153",
            "16",
            "16",
            "167",
            "167",
            "16M",
            "16M",
            "176",
            "176",
            "198",
            "198",
            "272",
            "272",
            "273",
            "273",
            "5",
            "5",
            "57",
            "57",
            "75",
            "75",
            "851",
            "851"
        ]
    },
    "10011": {
        "NAME": "Bef Neil Rd",
        "Longitude": 103.8375,
        "Latitude": 1.27774,
        "BusServices": [
            "12",
            "122",
            "124",
            "12e",
            "143",
            "147",
            "174",
            "174e",
            "190",
            "2",
            "54",
            "961",
            "961M"
        ]
    },
    "10017": {
        "NAME": "Aft Hosp Dr",
        "Longitude": 103.83763,
        "Latitude": 1.27832,
        "BusServices": [
            "12",
            "122",
            "124",
            "12e",
            "143",
            "147",
            "166",
            "167",
            "174",
            "174e",
            "190",
            "196",
            "197",
            "2",
            "54",
            "61",
            "961",
            "961M"
        ]
    },
    "10018": {
        "NAME": "Outram Pk Stn Exit 6/SGH",
        "Longitude": 103.8386,
        "Latitude": 1.27901,
        "BusServices": [
            "124",
            "143",
            "147",
            "166",
            "197",
            "61",
            "961",
            "961M"
        ]
    },
    "10021": {
        "NAME": "Blk 3",
        "Longitude": 103.83839,
        "Latitude": 1.27745,
        "BusServices": [
            "166",
            "167",
            "196",
            "197",
            "61"
        ]
    },
    "10041": {
        "NAME": "Bef Kampong Bahru Ter",
        "Longitude": 103.83519,
        "Latitude": 1.27606,
        "BusServices": [
            "12",
            "122",
            "124",
            "143",
            "147",
            "166",
            "167",
            "174",
            "190",
            "196",
            "197",
            "2",
            "54",
            "61",
            "961",
            "961M"
        ]
    },
    "10049": {
        "NAME": "Opp Kampong Bahru Ter",
        "Longitude": 103.83484,
        "Latitude": 1.27623,
        "BusServices": [
            "12",
            "122",
            "124",
            "143",
            "147",
            "166",
            "167",
            "174",
            "190",
            "196",
            "197",
            "2",
            "54",
            "61",
            "961",
            "961M"
        ]
    },
    "10051": {
        "NAME": "Blk 149",
        "Longitude": 103.83214,
        "Latitude": 1.27741,
        "BusServices": [
            "120",
            "147",
            "167",
            "196",
            "197",
            "961",
            "961M"
        ]
    },
    "10059": {
        "NAME": "Opp Blk 149",
        "Longitude": 103.83275,
        "Latitude": 1.2774,
        "BusServices": [
            "120",
            "147",
            "167",
            "196",
            "197",
            "961",
            "961M"
        ]
    },
    "10061": {
        "NAME": "Blk 140",
        "Longitude": 103.82949,
        "Latitude": 1.2786,
        "BusServices": [
            "120",
            "147",
            "167",
            "196",
            "197",
            "961",
            "961M"
        ]
    },
    "10069": {
        "NAME": "Opp Blk 140",
        "Longitude": 103.83008,
        "Latitude": 1.27855,
        "BusServices": [
            "120",
            "147",
            "167",
            "196",
            "197",
            "961",
            "961M"
        ]
    },
    "10071": {
        "NAME": "Blk 111",
        "Longitude": 103.82639,
        "Latitude": 1.28045,
        "BusServices": [
            "120",
            "121",
            "147",
            "167",
            "175",
            "196",
            "197",
            "75",
            "961",
            "961M"
        ]
    },
    "10079": {
        "NAME": "Blk 201",
        "Longitude": 103.82709,
        "Latitude": 1.2804,
        "BusServices": [
            "120",
            "121",
            "147",
            "167",
            "175",
            "196",
            "197",
            "75",
            "961",
            "961M"
        ]
    },
    "10081": {
        "NAME": "Opp Blk 120",
        "Longitude": 103.82242,
        "Latitude": 1.28228,
        "BusServices": [
            "131",
            "14",
            "147",
            "167",
            "175",
            "196",
            "197",
            "5",
            "75",
            "855",
            "961",
            "961M"
        ]
    },
    "10089": {
        "NAME": "Blk 119",
        "Longitude": 103.82166,
        "Latitude": 1.28292,
        "BusServices": [
            "131",
            "14",
            "147",
            "167",
            "175",
            "196",
            "197",
            "5",
            "75",
            "855",
            "961",
            "961M"
        ]
    },
    "10091": {
        "NAME": "Bt Merah Town Ctr",
        "Longitude": 103.81784,
        "Latitude": 1.28394,
        "BusServices": [
            "14",
            "147",
            "16M",
            "196",
            "197",
            "855",
            "961",
            "961M"
        ]
    },
    "10099": {
        "NAME": "Opp Bt Merah Town Ctr",
        "Longitude": 103.81766,
        "Latitude": 1.28421,
        "BusServices": [
            "14",
            "147",
            "16M",
            "196",
            "197",
            "855",
            "961",
            "961M"
        ]
    },
    "10101": {
        "NAME": "Opp Bt Merah Sec Sch",
        "Longitude": 103.81378,
        "Latitude": 1.28506,
        "BusServices": [
            "123",
            "139",
            "14",
            "147",
            "153",
            "196",
            "197",
            "198",
            "855",
            "961",
            "961M"
        ]
    },
    "10109": {
        "NAME": "Bt Merah Sec Sch",
        "Longitude": 103.81371,
        "Latitude": 1.28535,
        "BusServices": [
            "14",
            "147",
            "196",
            "197",
            "855",
            "961",
            "961M"
        ]
    },
    "10111": {
        "NAME": "Opp Blk 28",
        "Longitude": 103.80935,
        "Latitude": 1.28593,
        "BusServices": [
            "123",
            "14",
            "147",
            "153",
            "196",
            "197",
            "198",
            "855",
            "961",
            "961M"
        ]
    },
    "10119": {
        "NAME": "Opp Pacific Tech Ctr",
        "Longitude": 103.81123,
        "Latitude": 1.28598,
        "BusServices": [
            "123",
            "139",
            "14",
            "147",
            "153",
            "196",
            "197",
            "198",
            "855",
            "961",
            "961M"
        ]
    },
    "10121": {
        "NAME": "Blk 126 CP",
        "Longitude": 103.82891,
        "Latitude": 1.2826,
        "BusServices": [
            "121",
            "75"
        ]
    },
    "10129": {
        "NAME": "Blk 121",
        "Longitude": 103.82857,
        "Latitude": 1.28232,
        "BusServices": [
            "121",
            "75"
        ]
    },
    "10131": {
        "NAME": "Opp Blk 2",
        "Longitude": 103.80687,
        "Latitude": 1.28619,
        "BusServices": [
            "123",
            "14",
            "147",
            "153",
            "196",
            "197",
            "198",
            "855",
            "961",
            "961M"
        ]
    },
    "10139": {
        "NAME": "Blk 1",
        "Longitude": 103.8081,
        "Latitude": 1.28635,
        "BusServices": [
            "123",
            "14",
            "147",
            "153",
            "196",
            "197",
            "198",
            "855",
            "961",
            "961M"
        ]
    },
    "10141": {
        "NAME": "Blk 18",
        "Longitude": 103.83238,
        "Latitude": 1.28584,
        "BusServices": [
            "122",
            "123",
            "123M",
            "16",
            "16M",
            "195",
            "195A",
            "33",
            "5",
            "63",
            "63A",
            "75",
            "851"
        ]
    },
    "10149": {
        "NAME": "Blk 1",
        "Longitude": 103.83283,
        "Latitude": 1.28607,
        "BusServices": [
            "122",
            "123",
            "123M",
            "16",
            "16M",
            "195",
            "33",
            "33A",
            "5",
            "63",
            "75",
            "851"
        ]
    },
    "10151": {
        "NAME": "Ctrl Green Condo",
        "Longitude": 103.82853,
        "Latitude": 1.28572,
        "BusServices": [
            "121",
            "122",
            "123",
            "123M",
            "16",
            "16M",
            "195",
            "195A",
            "33",
            "5",
            "63",
            "63A",
            "851"
        ]
    },
    "10161": {
        "NAME": "Opp Tiong Bahru Stn",
        "Longitude": 103.82669,
        "Latitude": 1.28593,
        "BusServices": [
            "121",
            "122",
            "123",
            "123M",
            "16",
            "16M",
            "195",
            "195A",
            "33",
            "5",
            "63",
            "63A",
            "851"
        ]
    },
    "10169": {
        "NAME": "Tiong Bahru Stn",
        "Longitude": 103.82748,
        "Latitude": 1.286,
        "BusServices": [
            "121",
            "122",
            "123",
            "123M",
            "16",
            "16M",
            "195",
            "195A",
            "33",
            "33A",
            "5",
            "63",
            "851"
        ]
    },
    "10171": {
        "NAME": "Opp Tiong Bahru Pk",
        "Longitude": 103.82346,
        "Latitude": 1.28737,
        "BusServices": [
            "120",
            "16",
            "16M",
            "32",
            "33",
            "63",
            "63A",
            "64",
            "851"
        ]
    },
    "10179": {
        "NAME": "Tiong Bahru Pk",
        "Longitude": 103.82396,
        "Latitude": 1.28722,
        "BusServices": [
            "120",
            "16",
            "16M",
            "32",
            "33",
            "33A",
            "63",
            "64",
            "851"
        ]
    },
    "10181": {
        "NAME": "Bef Ar-Rabitah Mque",
        "Longitude": 103.8211,
        "Latitude": 1.2885,
        "BusServices": [
            "120",
            "132",
            "145",
            "32",
            "33",
            "63",
            "63A",
            "64"
        ]
    },
    "10189": {
        "NAME": "Blk 104A CP",
        "Longitude": 103.82183,
        "Latitude": 1.28859,
        "BusServices": [
            "120",
            "132",
            "145",
            "145A",
            "32",
            "33",
            "33A",
            "63",
            "64"
        ]
    },
    "10191": {
        "NAME": "Blk 78",
        "Longitude": 103.81903,
        "Latitude": 1.2886,
        "BusServices": [
            "120",
            "132",
            "145",
            "32",
            "33",
            "63",
            "63A",
            "64"
        ]
    },
    "10199": {
        "NAME": "Delta Swim Cplx",
        "Longitude": 103.81937,
        "Latitude": 1.28876,
        "BusServices": [
            "120",
            "132",
            "145",
            "145A",
            "32",
            "33",
            "33A",
            "63",
            "64"
        ]
    },
    "10201": {
        "NAME": "Opp Redhill Stn",
        "Longitude": 103.81663,
        "Latitude": 1.28928,
        "BusServices": [
            "120",
            "132",
            "145",
            "32",
            "33",
            "64"
        ]
    },
    "10209": {
        "NAME": "Redhill Stn",
        "Longitude": 103.81673,
        "Latitude": 1.28955,
        "BusServices": [
            "120",
            "132",
            "145",
            "145A",
            "32",
            "33",
            "33A",
            "64"
        ]
    },
    "10211": {
        "NAME": "BMW Eurokars Auto",
        "Longitude": 103.81144,
        "Latitude": 1.29075,
        "BusServices": [
            "139"
        ]
    },
    "10219": {
        "NAME": "Opp Motor Image",
        "Longitude": 103.81181,
        "Latitude": 1.29084,
        "BusServices": [
            "139"
        ]
    },
    "10221": {
        "NAME": "Ganges Ctr",
        "Longitude": 103.83112,
        "Latitude": 1.29033,
        "BusServices": [
            "121",
            "186",
            "51",
            "64"
        ]
    },
    "10229": {
        "NAME": "Opp Harvest Mansions",
        "Longitude": 103.83178,
        "Latitude": 1.29052,
        "BusServices": [
            "121",
            "186",
            "51",
            "64"
        ]
    },
    "10231": {
        "NAME": "Blk 51 CP",
        "Longitude": 103.82788,
        "Latitude": 1.29042,
        "BusServices": [
            "121",
            "186",
            "51",
            "64"
        ]
    },
    "10239": {
        "NAME": "Blk 79",
        "Longitude": 103.82865,
        "Latitude": 1.29061,
        "BusServices": [
            "121",
            "186",
            "51",
            "64"
        ]
    },
    "10241": {
        "NAME": "Gan Eng Seng Sec Sch",
        "Longitude": 103.82362,
        "Latitude": 1.29062,
        "BusServices": [
            "122",
            "139",
            "186",
            "51",
            "970"
        ]
    },
    "10249": {
        "NAME": "Opp Gan Eng Seng Sec Sch",
        "Longitude": 103.82408,
        "Latitude": 1.29088,
        "BusServices": [
            "122",
            "139",
            "186",
            "51",
            "970"
        ]
    },
    "10261": {
        "NAME": "Delta Sports Hall",
        "Longitude": 103.82047,
        "Latitude": 1.2909,
        "BusServices": [
            "122",
            "139",
            "186",
            "51",
            "970"
        ]
    },
    "10269": {
        "NAME": "Opp Delta Sports Hall",
        "Longitude": 103.82058,
        "Latitude": 1.29125,
        "BusServices": [
            "122",
            "139",
            "186",
            "51",
            "970"
        ]
    },
    "10271": {
        "NAME": "Opp Tanglin View",
        "Longitude": 103.81758,
        "Latitude": 1.29116,
        "BusServices": [
            "122",
            "139",
            "186",
            "51",
            "970"
        ]
    },
    "10279": {
        "NAME": "Tanglin View",
        "Longitude": 103.81758,
        "Latitude": 1.29151,
        "BusServices": [
            "122",
            "139",
            "186",
            "51",
            "970"
        ]
    },
    "10281": {
        "NAME": "SIS Bldg",
        "Longitude": 103.81445,
        "Latitude": 1.29154,
        "BusServices": [
            "111",
            "120",
            "139",
            "145",
            "186",
            "33",
            "51",
            "64",
            "970"
        ]
    },
    "10289": {
        "NAME": "Opp SIS Bldg",
        "Longitude": 103.81441,
        "Latitude": 1.29187,
        "BusServices": [
            "111",
            "139",
            "186",
            "51",
            "970"
        ]
    },
    "10291": {
        "NAME": "Opp Dawson Pl",
        "Longitude": 103.81066,
        "Latitude": 1.29216,
        "BusServices": [
            "111",
            "120",
            "139",
            "145",
            "186",
            "33",
            "51",
            "64",
            "970"
        ]
    },
    "10299": {
        "NAME": "Aft Dawson Pl",
        "Longitude": 103.81146,
        "Latitude": 1.29233,
        "BusServices": [
            "111",
            "120",
            "139",
            "145",
            "186",
            "33",
            "33A",
            "51",
            "64",
            "970"
        ]
    },
    "10321": {
        "NAME": "Opp Grace Ably of God Ch",
        "Longitude": 103.81588,
        "Latitude": 1.29428,
        "BusServices": [
            "111",
            "122",
            "132",
            "32"
        ]
    },
    "10329": {
        "NAME": "Crescent Girls' Sch",
        "Longitude": 103.81597,
        "Latitude": 1.29365,
        "BusServices": [
            "111",
            "122",
            "132",
            "32"
        ]
    },
    "10331": {
        "NAME": "Bef Bt Merah Ctrl",
        "Longitude": 103.81834,
        "Latitude": 1.28136,
        "BusServices": [
            "145",
            "175",
            "176",
            "272",
            "273",
            "57"
        ]
    },
    "10339": {
        "NAME": "Aft Bt Merah Ctrl",
        "Longitude": 103.81857,
        "Latitude": 1.28116,
        "BusServices": [
            "145",
            "145A",
            "175",
            "176",
            "272",
            "273",
            "57"
        ]
    },
    "10341": {
        "NAME": "Opp Blk 116",
        "Longitude": 103.82059,
        "Latitude": 1.28485,
        "BusServices": [
            "132",
            "145",
            "16",
            "16M",
            "851"
        ]
    },
    "10349": {
        "NAME": "Blk 116",
        "Longitude": 103.82101,
        "Latitude": 1.28498,
        "BusServices": [
            "132",
            "145",
            "145A",
            "16",
            "16M",
            "851"
        ]
    },
    "10351": {
        "NAME": "Blk 95B",
        "Longitude": 103.82205,
        "Latitude": 1.28676,
        "BusServices": [
            "132",
            "145",
            "16",
            "16M",
            "851"
        ]
    },
    "10359": {
        "NAME": "Opp Blk 95C",
        "Longitude": 103.82259,
        "Latitude": 1.28724,
        "BusServices": [
            "132",
            "145",
            "145A",
            "16",
            "16M",
            "851"
        ]
    },
    "10361": {
        "NAME": "Cendex Ctr",
        "Longitude": 103.82353,
        "Latitude": 1.28038,
        "BusServices": [
            "121",
            "123",
            "123M",
            "131",
            "195",
            "195A",
            "65",
            "855"
        ]
    },
    "10369": {
        "NAME": "Opp Cendex Ctr",
        "Longitude": 103.82387,
        "Latitude": 1.28037,
        "BusServices": [
            "121",
            "123",
            "123M",
            "131",
            "195",
            "195A",
            "65",
            "855"
        ]
    },
    "10371": {
        "NAME": "Blk 129",
        "Longitude": 103.8245,
        "Latitude": 1.28365,
        "BusServices": [
            "120",
            "123",
            "123M",
            "14",
            "195",
            "195A",
            "5",
            "65"
        ]
    },
    "10379": {
        "NAME": "Blk 25B",
        "Longitude": 103.8249,
        "Latitude": 1.28374,
        "BusServices": [
            "120",
            "123",
            "123M",
            "14",
            "195",
            "195A",
            "5",
            "65"
        ]
    },
    "10381": {
        "NAME": "Opp Blk 48",
        "Longitude": 103.82559,
        "Latitude": 1.28907,
        "BusServices": [
            "121",
            "122",
            "14",
            "32",
            "64",
            "65"
        ]
    },
    "10389": {
        "NAME": "Blk 48",
        "Longitude": 103.82573,
        "Latitude": 1.28876,
        "BusServices": [
            "121",
            "122",
            "14",
            "32",
            "64",
            "65"
        ]
    },
    "10391": {
        "NAME": "Opp Melati Blk 2",
        "Longitude": 103.83126,
        "Latitude": 1.27627,
        "BusServices": [
            "124",
            "143",
            "166",
            "61"
        ]
    },
    "10399": {
        "NAME": "Melati Blk 2",
        "Longitude": 103.83019,
        "Latitude": 1.27588,
        "BusServices": [
            "124",
            "143",
            "166",
            "61"
        ]
    },
    "10401": {
        "NAME": "Shriro Hse",
        "Longitude": 103.81168,
        "Latitude": 1.28817,
        "BusServices": [
            "63"
        ]
    },
    "10409": {
        "NAME": "Blk 50",
        "Longitude": 103.81099,
        "Latitude": 1.28788,
        "BusServices": [
            "63",
            "63A"
        ]
    },
    "10411": {
        "NAME": "Opp Blk 53",
        "Longitude": 103.81281,
        "Latitude": 1.28913,
        "BusServices": [
            "63"
        ]
    },
    "10419": {
        "NAME": "Blk 52",
        "Longitude": 103.81258,
        "Latitude": 1.28842,
        "BusServices": [
            "63",
            "63A"
        ]
    },
    "10421": {
        "NAME": "Blk 63B",
        "Longitude": 103.81498,
        "Latitude": 1.28896,
        "BusServices": [
            "139",
            "63"
        ]
    },
    "10429": {
        "NAME": "Blk 54",
        "Longitude": 103.81405,
        "Latitude": 1.28928,
        "BusServices": [
            "139",
            "63",
            "63A"
        ]
    },
    "10431": {
        "NAME": "Enabling Village",
        "Longitude": 103.81398,
        "Latitude": 1.2872,
        "BusServices": [
            "139"
        ]
    },
    "10439": {
        "NAME": "Opp Enabling Village",
        "Longitude": 103.81419,
        "Latitude": 1.28748,
        "BusServices": [
            "139"
        ]
    },
    "10441": {
        "NAME": "Opp Blk 44",
        "Longitude": 103.81161,
        "Latitude": 1.28657,
        "BusServices": [
            "139"
        ]
    },
    "10449": {
        "NAME": "Blk 44",
        "Longitude": 103.81195,
        "Latitude": 1.28667,
        "BusServices": [
            "139"
        ]
    },
    "10451": {
        "NAME": "Opp Blk 71",
        "Longitude": 103.81726,
        "Latitude": 1.28762,
        "BusServices": [
            "63"
        ]
    },
    "10459": {
        "NAME": "Blk 72",
        "Longitude": 103.8164,
        "Latitude": 1.28755,
        "BusServices": [
            "63",
            "63A"
        ]
    },
    "10461": {
        "NAME": "Opp Blk 95",
        "Longitude": 103.81169,
        "Latitude": 1.29681,
        "BusServices": [
            "122",
            "32"
        ]
    },
    "10469": {
        "NAME": "Bef Margaret Dr",
        "Longitude": 103.81217,
        "Latitude": 1.29668,
        "BusServices": [
            "122",
            "32"
        ]
    },
    "10471": {
        "NAME": "Bef Tanglin Rd",
        "Longitude": 103.81468,
        "Latitude": 1.2968,
        "BusServices": [
            "122",
            "32"
        ]
    },
    "10479": {
        "NAME": "Aft Tanglin Rd",
        "Longitude": 103.81547,
        "Latitude": 1.29668,
        "BusServices": [
            "122",
            "32"
        ]
    },
    "10481": {
        "NAME": "Opp Blk 73",
        "Longitude": 103.81797,
        "Latitude": 1.28784,
        "BusServices": [
            "63",
            "63A"
        ]
    },
    "10489": {
        "NAME": "Blk 73",
        "Longitude": 103.81778,
        "Latitude": 1.28812,
        "BusServices": [
            "63"
        ]
    },
    "10499": {
        "NAME": "Kampong Bahru Ter",
        "Longitude": 103.83401,
        "Latitude": 1.27585,
        "BusServices": [
            "12",
            "12",
            "120",
            "120",
            "122",
            "122",
            "12e",
            "12e",
            "174",
            "174",
            "174e",
            "174e",
            "190",
            "190",
            "2",
            "2",
            "54",
            "54"
        ]
    },
    "10501": {
        "NAME": "Blk 104",
        "Longitude": 103.82528,
        "Latitude": 1.28106,
        "BusServices": [
            "121",
            "147",
            "167",
            "175",
            "196",
            "197",
            "75",
            "961",
            "961M"
        ]
    },
    "10519": {
        "NAME": "Blk 4",
        "Longitude": 103.82612,
        "Latitude": 1.29173,
        "BusServices": [
            "139",
            "14",
            "32",
            "65",
            "970"
        ]
    },
    "10599": {
        "NAME": "Opp Blk 36",
        "Longitude": 103.80925,
        "Latitude": 1.28883,
        "BusServices": [
            "63",
            "63A"
        ]
    },
    "10651": {
        "NAME": "Blk 161",
        "Longitude": 103.81548,
        "Latitude": 1.2833,
        "BusServices": [
            "123",
            "139",
            "153",
            "16M",
            "198"
        ]
    },
    "10659": {
        "NAME": "Blk 1003",
        "Longitude": 103.81473,
        "Latitude": 1.28362,
        "BusServices": [
            "123",
            "139",
            "153",
            "16M",
            "198"
        ]
    },
    "11001": {
        "NAME": "Opposite Ghim Moh Terminal",
        "Longitude": 103.78916,
        "Latitude": 1.31107,
        "BusServices": [
            "100",
            "111",
            "92",
            "92M"
        ]
    },
    "11009": {
        "NAME": "Ghim Moh Ter",
        "Longitude": 103.78932,
        "Latitude": 1.31107,
        "BusServices": [
            "100",
            "100",
            "111",
            "111",
            "92",
            "92",
            "92M",
            "92M"
        ]
    },
    "11019": {
        "NAME": "Bef Blk 2",
        "Longitude": 103.80566,
        "Latitude": 1.2868,
        "BusServices": [
            "123",
            "14",
            "147",
            "153",
            "196",
            "197",
            "198",
            "855",
            "961",
            "961M"
        ]
    },
    "11021": {
        "NAME": "Aft Queenstown NPC HQ",
        "Longitude": 103.80229,
        "Latitude": 1.28942,
        "BusServices": [
            "100",
            "123",
            "147",
            "153",
            "196",
            "198",
            "51",
            "61",
            "855",
            "93",
            "961",
            "961M"
        ]
    },
    "11029": {
        "NAME": "Blk 166/Aft Mei Chin Rd",
        "Longitude": 103.80202,
        "Latitude": 1.29013,
        "BusServices": [
            "100",
            "123",
            "147",
            "153",
            "196",
            "198",
            "51",
            "61",
            "64",
            "855",
            "93",
            "961",
            "961M"
        ]
    },
    "11031": {
        "NAME": "Opp Queen's Cl",
        "Longitude": 103.80046,
        "Latitude": 1.2912,
        "BusServices": [
            "100",
            "123",
            "147",
            "153",
            "196",
            "198",
            "51",
            "61",
            "855",
            "93",
            "961",
            "961M"
        ]
    },
    "11039": {
        "NAME": "Blk 19",
        "Longitude": 103.79999,
        "Latitude": 1.29246,
        "BusServices": [
            "100",
            "123",
            "147",
            "153",
            "196",
            "198",
            "51",
            "61",
            "855",
            "93",
            "961",
            "961M"
        ]
    },
    "11041": {
        "NAME": "Aft C'wealth Dr",
        "Longitude": 103.79952,
        "Latitude": 1.29624,
        "BusServices": [
            "100",
            "123",
            "147",
            "153",
            "196",
            "198",
            "51",
            "855",
            "93",
            "961",
            "961M"
        ]
    },
    "11049": {
        "NAME": "Opp Blessed Sacrament Ch",
        "Longitude": 103.79953,
        "Latitude": 1.29546,
        "BusServices": [
            "100",
            "123",
            "147",
            "153",
            "196",
            "198",
            "51",
            "61",
            "855",
            "93",
            "961",
            "961M"
        ]
    },
    "11051": {
        "NAME": "Opp Queenstown Polyclinic",
        "Longitude": 103.8003,
        "Latitude": 1.29872,
        "BusServices": [
            "100",
            "123",
            "147",
            "153",
            "196",
            "198",
            "51",
            "855",
            "93",
            "961",
            "961M"
        ]
    },
    "11059": {
        "NAME": "Queenstown Polyclinic",
        "Longitude": 103.80097,
        "Latitude": 1.29883,
        "BusServices": [
            "100",
            "123",
            "147",
            "153",
            "196",
            "198",
            "51",
            "61",
            "855",
            "93",
            "961",
            "961M"
        ]
    },
    "11061": {
        "NAME": "Opp Queensway Sec Sch",
        "Longitude": 103.80119,
        "Latitude": 1.30266,
        "BusServices": [
            "105",
            "122",
            "123",
            "153",
            "186",
            "195",
            "195A",
            "855",
            "93",
            "961",
            "961M"
        ]
    },
    "11069": {
        "NAME": "Queensway Sec Sch",
        "Longitude": 103.80162,
        "Latitude": 1.30237,
        "BusServices": [
            "105",
            "123",
            "153",
            "186",
            "855",
            "93",
            "961",
            "961M"
        ]
    },
    "11071": {
        "NAME": "Blk 97",
        "Longitude": 103.80171,
        "Latitude": 1.30621,
        "BusServices": [
            "105",
            "123",
            "153",
            "186",
            "855",
            "93",
            "961",
            "961M"
        ]
    },
    "11079": {
        "NAME": "Opp Blk 95",
        "Longitude": 103.80185,
        "Latitude": 1.30544,
        "BusServices": [
            "105",
            "123",
            "153",
            "186",
            "855",
            "93",
            "961",
            "961M"
        ]
    },
    "11081": {
        "NAME": "Viz Holland",
        "Longitude": 103.80258,
        "Latitude": 1.30852,
        "BusServices": [
            "105",
            "123",
            "153",
            "186",
            "855",
            "93",
            "961",
            "961M"
        ]
    },
    "11089": {
        "NAME": "Opp Holland Hill Lodge",
        "Longitude": 103.80334,
        "Latitude": 1.30946,
        "BusServices": [
            "105",
            "123",
            "153",
            "186",
            "855",
            "93",
            "961",
            "961M"
        ]
    },
    "11091": {
        "NAME": "Leedon Green",
        "Longitude": 103.80367,
        "Latitude": 1.31219,
        "BusServices": [
            "153",
            "165",
            "174",
            "186",
            "48",
            "855",
            "93",
            "961",
            "961M"
        ]
    },
    "11099": {
        "NAME": "Opp Leedon Green",
        "Longitude": 103.80438,
        "Latitude": 1.31305,
        "BusServices": [
            "153",
            "165",
            "174",
            "186",
            "48",
            "855",
            "93",
            "961",
            "961M"
        ]
    },
    "11101": {
        "NAME": "Farrer Rd Mkt",
        "Longitude": 103.80596,
        "Latitude": 1.31615,
        "BusServices": [
            "153",
            "165",
            "174",
            "186",
            "48",
            "855",
            "93",
            "961",
            "961M"
        ]
    },
    "11109": {
        "NAME": "Spanish Village",
        "Longitude": 103.80574,
        "Latitude": 1.31552,
        "BusServices": [
            "153",
            "165",
            "174",
            "186",
            "48",
            "855",
            "93",
            "961",
            "961M"
        ]
    },
    "11111": {
        "NAME": "Farrer Rd Stn Exit B",
        "Longitude": 103.80772,
        "Latitude": 1.3178,
        "BusServices": [
            "153",
            "165",
            "174",
            "186",
            "48",
            "855",
            "93",
            "961",
            "961M"
        ]
    },
    "11119": {
        "NAME": "Farrer Rd Stn Exit A",
        "Longitude": 103.80786,
        "Latitude": 1.31748,
        "BusServices": [
            "153",
            "165",
            "174",
            "186",
            "48",
            "855",
            "93",
            "961",
            "961M"
        ]
    },
    "11131": {
        "NAME": "Queens Condo",
        "Longitude": 103.80707,
        "Latitude": 1.29288,
        "BusServices": [
            "111",
            "145",
            "186",
            "195",
            "195A",
            "51",
            "970"
        ]
    },
    "11139": {
        "NAME": "Blk 53A CP",
        "Longitude": 103.80745,
        "Latitude": 1.2932,
        "BusServices": [
            "111",
            "145",
            "186",
            "51",
            "970"
        ]
    },
    "11141": {
        "NAME": "Queenstown Stn Exit A/D",
        "Longitude": 103.80583,
        "Latitude": 1.29464,
        "BusServices": [
            "111",
            "145",
            "186",
            "195",
            "195A",
            "51",
            "970"
        ]
    },
    "11149": {
        "NAME": "Queenstown Stn Exit B/C",
        "Longitude": 103.80596,
        "Latitude": 1.29506,
        "BusServices": [
            "111",
            "145",
            "186",
            "195",
            "195A",
            "51",
            "970"
        ]
    },
    "11151": {
        "NAME": "Blk 42",
        "Longitude": 103.80248,
        "Latitude": 1.29864,
        "BusServices": [
            "111",
            "145",
            "186",
            "195",
            "195A",
            "51",
            "970"
        ]
    },
    "11159": {
        "NAME": "Aft Ch of Our Saviour",
        "Longitude": 103.80363,
        "Latitude": 1.298,
        "BusServices": [
            "111",
            "145",
            "186",
            "195",
            "195A",
            "51",
            "970"
        ]
    },
    "11161": {
        "NAME": "C'wealth Stn Exit A/D",
        "Longitude": 103.79839,
        "Latitude": 1.30213,
        "BusServices": [
            "100",
            "105",
            "111",
            "145",
            "147",
            "196",
            "198",
            "32",
            "61",
            "970"
        ]
    },
    "11169": {
        "NAME": "C'wealth Stn Exit B/C",
        "Longitude": 103.79838,
        "Latitude": 1.30271,
        "BusServices": [
            "100",
            "105",
            "111",
            "122",
            "145",
            "147",
            "195",
            "195A",
            "196",
            "198",
            "32",
            "61",
            "970"
        ]
    },
    "11171": {
        "NAME": "Opp Blk 7B",
        "Longitude": 103.7948,
        "Latitude": 1.30536,
        "BusServices": [
            "100",
            "105",
            "111",
            "145",
            "147",
            "196",
            "198",
            "32",
            "61",
            "970"
        ]
    },
    "11179": {
        "NAME": "Blk 8",
        "Longitude": 103.79428,
        "Latitude": 1.30628,
        "BusServices": [
            "100",
            "105",
            "111",
            "145",
            "147",
            "196",
            "198",
            "32",
            "61",
            "970"
        ]
    },
    "11181": {
        "NAME": "Opp Blk 43",
        "Longitude": 103.79228,
        "Latitude": 1.30722,
        "BusServices": [
            "100",
            "105",
            "106",
            "111",
            "147",
            "185",
            "191",
            "196",
            "198",
            "200",
            "200A",
            "74",
            "91",
            "95"
        ]
    },
    "11189": {
        "NAME": "Blk 43",
        "Longitude": 103.79254,
        "Latitude": 1.3074,
        "BusServices": [
            "100",
            "105",
            "106",
            "111",
            "145",
            "147",
            "185",
            "191",
            "196",
            "198",
            "200",
            "32",
            "74",
            "91",
            "95"
        ]
    },
    "11191": {
        "NAME": "The Star Vista",
        "Longitude": 103.78837,
        "Latitude": 1.30802,
        "BusServices": [
            "105",
            "106",
            "14",
            "147",
            "185"
        ]
    },
    "11199": {
        "NAME": "Blk 15",
        "Longitude": 103.78843,
        "Latitude": 1.30838,
        "BusServices": [
            "105",
            "106",
            "14",
            "147",
            "185"
        ]
    },
    "11201": {
        "NAME": "CSC Dempsey Clubhse",
        "Longitude": 103.81186,
        "Latitude": 1.30693,
        "BusServices": [
            "105",
            "106",
            "123",
            "174",
            "7",
            "75",
            "77"
        ]
    },
    "11209": {
        "NAME": "Opp Peirce Rd",
        "Longitude": 103.81038,
        "Latitude": 1.30817,
        "BusServices": [
            "105",
            "106",
            "123",
            "174",
            "7",
            "75",
            "77",
            "7B"
        ]
    },
    "11211": {
        "NAME": "Aft Peirce Rd",
        "Longitude": 103.8094,
        "Latitude": 1.30839,
        "BusServices": [
            "105",
            "106",
            "123",
            "174",
            "7",
            "75",
            "77"
        ]
    },
    "11219": {
        "NAME": "Great Eastern Mansions",
        "Longitude": 103.80716,
        "Latitude": 1.30989,
        "BusServices": [
            "105",
            "106",
            "123",
            "174",
            "7",
            "75",
            "77",
            "7B"
        ]
    },
    "11221": {
        "NAME": "Lien Twrs",
        "Longitude": 103.80551,
        "Latitude": 1.31002,
        "BusServices": [
            "105",
            "106",
            "123",
            "174",
            "7",
            "75",
            "77"
        ]
    },
    "11229": {
        "NAME": "Sommerville Pk",
        "Longitude": 103.80523,
        "Latitude": 1.3106,
        "BusServices": [
            "105",
            "106",
            "123",
            "174",
            "7",
            "75",
            "77",
            "7B"
        ]
    },
    "11231": {
        "NAME": "Aft Hyll on Holland",
        "Longitude": 103.8012,
        "Latitude": 1.31115,
        "BusServices": [
            "106",
            "165",
            "48",
            "7",
            "75",
            "77"
        ]
    },
    "11239": {
        "NAME": "Fairlodge",
        "Longitude": 103.80166,
        "Latitude": 1.31153,
        "BusServices": [
            "106",
            "165",
            "48",
            "7",
            "75",
            "77",
            "7B"
        ]
    },
    "11259": {
        "NAME": "Opp Blk 21",
        "Longitude": 103.79274,
        "Latitude": 1.3112,
        "BusServices": [
            "95"
        ]
    },
    "11261": {
        "NAME": "Holland Village",
        "Longitude": 103.79445,
        "Latitude": 1.31223,
        "BusServices": [
            "165",
            "61",
            "7",
            "75",
            "77",
            "95",
            "970"
        ]
    },
    "11269": {
        "NAME": "Opp Holland Village",
        "Longitude": 103.79454,
        "Latitude": 1.31256,
        "BusServices": [
            "165",
            "61",
            "7",
            "75",
            "77",
            "7B",
            "970"
        ]
    },
    "11271": {
        "NAME": "Aft East Sussex Lane",
        "Longitude": 103.79008,
        "Latitude": 1.31473,
        "BusServices": [
            "165",
            "61",
            "7",
            "75",
            "77",
            "970"
        ]
    },
    "11279": {
        "NAME": "Aft Coronation Rd West",
        "Longitude": 103.79069,
        "Latitude": 1.31467,
        "BusServices": [
            "165",
            "61",
            "7",
            "75",
            "77",
            "7B",
            "970"
        ]
    },
    "11281": {
        "NAME": "Aft Tan Boon Chong Ave",
        "Longitude": 103.78852,
        "Latitude": 1.31623,
        "BusServices": [
            "165",
            "61",
            "7",
            "75"
        ]
    },
    "11289": {
        "NAME": "Opp Tan Boon Chong Ave",
        "Longitude": 103.78904,
        "Latitude": 1.31619,
        "BusServices": [
            "165",
            "61",
            "7",
            "75",
            "77",
            "7B",
            "970"
        ]
    },
    "11291": {
        "NAME": "Cold Storage Jelita",
        "Longitude": 103.78592,
        "Latitude": 1.31793,
        "BusServices": [
            "156",
            "165",
            "61",
            "7",
            "75"
        ]
    },
    "11299": {
        "NAME": "Opp Cold Storage Jelita",
        "Longitude": 103.78559,
        "Latitude": 1.31827,
        "BusServices": [
            "156",
            "165",
            "61",
            "7",
            "75",
            "7B"
        ]
    },
    "11301": {
        "NAME": "Hse No. 578",
        "Longitude": 103.7879,
        "Latitude": 1.31804,
        "BusServices": [
            "156",
            "77",
            "970"
        ]
    },
    "11309": {
        "NAME": "Hse No. 589",
        "Longitude": 103.78843,
        "Latitude": 1.31862,
        "BusServices": [
            "156",
            "77",
            "970"
        ]
    },
    "11311": {
        "NAME": "Hse No. 532",
        "Longitude": 103.78919,
        "Latitude": 1.3199,
        "BusServices": [
            "156",
            "77",
            "970"
        ]
    },
    "11319": {
        "NAME": "Opp Hse No. 516",
        "Longitude": 103.7896,
        "Latitude": 1.32031,
        "BusServices": [
            "156",
            "77",
            "970"
        ]
    },
    "11321": {
        "NAME": "Opp Regent Villa",
        "Longitude": 103.7901,
        "Latitude": 1.32123,
        "BusServices": [
            "156",
            "77",
            "970"
        ]
    },
    "11329": {
        "NAME": "Regent Villa",
        "Longitude": 103.79098,
        "Latitude": 1.32236,
        "BusServices": [
            "156",
            "77",
            "970"
        ]
    },
    "11331": {
        "NAME": "Opp Dynasty Gdn II",
        "Longitude": 103.79145,
        "Latitude": 1.32321,
        "BusServices": [
            "156",
            "77",
            "970"
        ]
    },
    "11339": {
        "NAME": "Dynasty Lodge",
        "Longitude": 103.79205,
        "Latitude": 1.32399,
        "BusServices": [
            "156",
            "77",
            "970"
        ]
    },
    "11341": {
        "NAME": "Garlick Ville",
        "Longitude": 103.79283,
        "Latitude": 1.32552,
        "BusServices": [
            "156",
            "77",
            "970"
        ]
    },
    "11349": {
        "NAME": "Opp Garlick Ville",
        "Longitude": 103.79304,
        "Latitude": 1.32563,
        "BusServices": [
            "156",
            "77",
            "970"
        ]
    },
    "11351": {
        "NAME": "Blk 13",
        "Longitude": 103.78945,
        "Latitude": 1.30935,
        "BusServices": [
            "100",
            "111",
            "92",
            "92M"
        ]
    },
    "11359": {
        "NAME": "Opp Blk 13",
        "Longitude": 103.78969,
        "Latitude": 1.30931,
        "BusServices": [
            "100",
            "111",
            "92",
            "92M"
        ]
    },
    "11361": {
        "NAME": "Buona Vista Stn Exit C",
        "Longitude": 103.79058,
        "Latitude": 1.3065,
        "BusServices": [
            "14",
            "191",
            "196",
            "198",
            "200",
            "74",
            "91",
            "92",
            "92M",
            "95",
            "95B"
        ]
    },
    "11369": {
        "NAME": "Buona Vista Stn Exit D",
        "Longitude": 103.79085,
        "Latitude": 1.30633,
        "BusServices": [
            "14",
            "191",
            "196",
            "198",
            "200",
            "200A",
            "74",
            "91",
            "92",
            "92M",
            "95"
        ]
    },
    "11379": {
        "NAME": "Buona Vista Ter",
        "Longitude": 103.79236,
        "Latitude": 1.30917,
        "BusServices": [
            "145",
            "145",
            "185",
            "185",
            "191",
            "191",
            "200",
            "200",
            "200A",
            "32",
            "32",
            "48",
            "48",
            "74",
            "74",
            "91",
            "91"
        ]
    },
    "11381": {
        "NAME": "Blk 10A",
        "Longitude": 103.79328,
        "Latitude": 1.30841,
        "BusServices": [
            "185",
            "191",
            "200",
            "200A",
            "48",
            "74",
            "91",
            "95"
        ]
    },
    "11389": {
        "NAME": "Buona Vista CC",
        "Longitude": 103.79293,
        "Latitude": 1.30907,
        "BusServices": [
            "145",
            "185",
            "191",
            "200",
            "32",
            "48",
            "74",
            "91"
        ]
    },
    "11401": {
        "NAME": "Holland V Stn/Blk12",
        "Longitude": 103.79507,
        "Latitude": 1.30907,
        "BusServices": [
            "106",
            "48",
            "61",
            "95",
            "970"
        ]
    },
    "11409": {
        "NAME": "Blk 9",
        "Longitude": 103.79433,
        "Latitude": 1.30764,
        "BusServices": [
            "106",
            "61",
            "970"
        ]
    },
    "11419": {
        "NAME": "Holland V Stn Exit A",
        "Longitude": 103.79604,
        "Latitude": 1.31103,
        "BusServices": [
            "106",
            "48",
            "61",
            "970"
        ]
    },
    "11429": {
        "NAME": "Opp Blk 115B",
        "Longitude": 103.79836,
        "Latitude": 1.30454,
        "BusServices": [
            "122",
            "195",
            "195A"
        ]
    },
    "11439": {
        "NAME": "Blk 92",
        "Longitude": 103.8003,
        "Latitude": 1.30606,
        "BusServices": [
            "122",
            "195",
            "195A"
        ]
    },
    "11441": {
        "NAME": "Blk 58",
        "Longitude": 103.79754,
        "Latitude": 1.2978,
        "BusServices": [
            "61"
        ]
    },
    "11449": {
        "NAME": "Blk 37B",
        "Longitude": 103.7976,
        "Latitude": 1.29841,
        "BusServices": [
            "61"
        ]
    },
    "11451": {
        "NAME": "Blk 72",
        "Longitude": 103.79707,
        "Latitude": 1.30035,
        "BusServices": [
            "61"
        ]
    },
    "11459": {
        "NAME": "Blk 50",
        "Longitude": 103.79685,
        "Latitude": 1.30097,
        "BusServices": [
            "61"
        ]
    },
    "11469": {
        "NAME": "Queensway Sec Sch",
        "Longitude": 103.80189,
        "Latitude": 1.30114,
        "BusServices": [
            "122",
            "32"
        ]
    },
    "11471": {
        "NAME": "Opp The Fisherman Ch",
        "Longitude": 103.80315,
        "Latitude": 1.29952,
        "BusServices": [
            "122",
            "32"
        ]
    },
    "11481": {
        "NAME": "Queenstown Lib",
        "Longitude": 103.80601,
        "Latitude": 1.29812,
        "BusServices": [
            "122",
            "32"
        ]
    },
    "11489": {
        "NAME": "Blk 30",
        "Longitude": 103.8044,
        "Latitude": 1.29882,
        "BusServices": [
            "122",
            "32"
        ]
    },
    "11491": {
        "NAME": "Opp Queenstown Pr Sch",
        "Longitude": 103.80764,
        "Latitude": 1.2971,
        "BusServices": [
            "122",
            "32"
        ]
    },
    "11499": {
        "NAME": "Queenstown Pr Sch",
        "Longitude": 103.80789,
        "Latitude": 1.29685,
        "BusServices": [
            "122",
            "32"
        ]
    },
    "11511": {
        "NAME": "Alexandra Hosp",
        "Longitude": 103.80252,
        "Latitude": 1.28595,
        "BusServices": [
            "100",
            "120",
            "14",
            "195",
            "195A",
            "197",
            "33",
            "33A",
            "51",
            "61",
            "93"
        ]
    },
    "11519": {
        "NAME": "Opp Queensway Shop Ctr",
        "Longitude": 103.80334,
        "Latitude": 1.28666,
        "BusServices": [
            "100",
            "120",
            "14",
            "195",
            "195A",
            "197",
            "33",
            "51",
            "61",
            "93"
        ]
    },
    "11521": {
        "NAME": "Anchorpoint",
        "Longitude": 103.80543,
        "Latitude": 1.28857,
        "BusServices": [
            "120",
            "195",
            "195A",
            "33",
            "33A",
            "64"
        ]
    },
    "11529": {
        "NAME": "Bef IKEA Ind Bldg",
        "Longitude": 103.80609,
        "Latitude": 1.28903,
        "BusServices": [
            "120",
            "195",
            "195A",
            "33"
        ]
    },
    "11531": {
        "NAME": "Opp Lea Hin Hardware Fty",
        "Longitude": 103.80753,
        "Latitude": 1.29109,
        "BusServices": [
            "120",
            "195",
            "195A",
            "33",
            "33A",
            "64"
        ]
    },
    "11539": {
        "NAME": "Lea Hin Hardware Fty",
        "Longitude": 103.80786,
        "Latitude": 1.29117,
        "BusServices": [
            "120",
            "195",
            "195A",
            "33"
        ]
    },
    "11541": {
        "NAME": "Opp Queens",
        "Longitude": 103.80579,
        "Latitude": 1.29236,
        "BusServices": [
            "64"
        ]
    },
    "11551": {
        "NAME": "Tiong Ghee Tp",
        "Longitude": 103.8041,
        "Latitude": 1.29127,
        "BusServices": [
            "64"
        ]
    },
    "11561": {
        "NAME": "Blk 166",
        "Longitude": 103.80248,
        "Latitude": 1.29107,
        "BusServices": [
            "64"
        ]
    },
    "11579": {
        "NAME": "Blk 158",
        "Longitude": 103.80303,
        "Latitude": 1.29256,
        "BusServices": [
            "64"
        ]
    },
    "11589": {
        "NAME": "Blk 157",
        "Longitude": 103.80401,
        "Latitude": 1.29299,
        "BusServices": [
            "64"
        ]
    },
    "11599": {
        "NAME": "Blk 153",
        "Longitude": 103.80315,
        "Latitude": 1.29421,
        "BusServices": [
            "64"
        ]
    },
    "11609": {
        "NAME": "Blk 163",
        "Longitude": 103.80212,
        "Latitude": 1.29189,
        "BusServices": [
            "64"
        ]
    },
    "12021": {
        "NAME": "Bef Moonbeam Wk",
        "Longitude": 103.78243,
        "Latitude": 1.31908,
        "BusServices": [
            "156",
            "165",
            "61",
            "7",
            "75"
        ]
    },
    "12029": {
        "NAME": "Opp Moonbeam Wk",
        "Longitude": 103.78244,
        "Latitude": 1.31958,
        "BusServices": [
            "156",
            "165",
            "61",
            "7",
            "75",
            "7B"
        ]
    },
    "12031": {
        "NAME": "Pandan Valley Condo",
        "Longitude": 103.77963,
        "Latitude": 1.3208,
        "BusServices": [
            "156",
            "165",
            "61",
            "7",
            "75",
            "92",
            "92M"
        ]
    },
    "12039": {
        "NAME": "Opp Pandan Valley Condo",
        "Longitude": 103.78019,
        "Latitude": 1.32105,
        "BusServices": [
            "156",
            "165",
            "61",
            "7",
            "75",
            "7B"
        ]
    },
    "12041": {
        "NAME": "Aft Pandan Valley",
        "Longitude": 103.77653,
        "Latitude": 1.32049,
        "BusServices": [
            "156",
            "165",
            "61",
            "7",
            "75"
        ]
    },
    "12049": {
        "NAME": "Opp Pandan Valley",
        "Longitude": 103.77656,
        "Latitude": 1.32091,
        "BusServices": [
            "156",
            "165",
            "61",
            "7",
            "75",
            "7B"
        ]
    },
    "12051": {
        "NAME": "Pine Gr Condo",
        "Longitude": 103.77506,
        "Latitude": 1.32043,
        "BusServices": [
            "156",
            "165",
            "61",
            "7",
            "75"
        ]
    },
    "12059": {
        "NAME": "Opp Pine Gr Condo",
        "Longitude": 103.77516,
        "Latitude": 1.32073,
        "BusServices": [
            "156",
            "165",
            "61",
            "7",
            "75",
            "7B"
        ]
    },
    "12061": {
        "NAME": "Blk 109",
        "Longitude": 103.77087,
        "Latitude": 1.32179,
        "BusServices": [
            "151",
            "154",
            "154B",
            "184",
            "52",
            "61",
            "74",
            "75"
        ]
    },
    "12069": {
        "NAME": "Opp Blk 109A",
        "Longitude": 103.77105,
        "Latitude": 1.32143,
        "BusServices": [
            "151",
            "154",
            "184",
            "52",
            "61",
            "74",
            "75"
        ]
    },
    "12071": {
        "NAME": "Blk 116",
        "Longitude": 103.77219,
        "Latitude": 1.32402,
        "BusServices": [
            "151",
            "154",
            "154B",
            "184",
            "52",
            "61",
            "74",
            "75"
        ]
    },
    "12079": {
        "NAME": "Opp Blk 116",
        "Longitude": 103.77263,
        "Latitude": 1.32383,
        "BusServices": [
            "151",
            "154",
            "184",
            "52",
            "61",
            "74",
            "75"
        ]
    },
    "12081": {
        "NAME": "Clementi N'hood Pk",
        "Longitude": 103.77543,
        "Latitude": 1.32647,
        "BusServices": [
            "151",
            "154",
            "154B",
            "184",
            "52",
            "61",
            "74",
            "75"
        ]
    },
    "12089": {
        "NAME": "Opp Maju Camp",
        "Longitude": 103.77571,
        "Latitude": 1.32626,
        "BusServices": [
            "151",
            "154",
            "184",
            "52",
            "61",
            "74",
            "75"
        ]
    },
    "12091": {
        "NAME": "SIM Campus",
        "Longitude": 103.77715,
        "Latitude": 1.32918,
        "BusServices": [
            "151",
            "154",
            "154B",
            "184",
            "52",
            "61",
            "74",
            "75"
        ]
    },
    "12099": {
        "NAME": "Opp SIM Campus",
        "Longitude": 103.77671,
        "Latitude": 1.32784,
        "BusServices": [
            "151",
            "154",
            "184",
            "52",
            "61",
            "74",
            "75"
        ]
    },
    "12101": {
        "NAME": "Ngee Ann Poly",
        "Longitude": 103.77769,
        "Latitude": 1.33244,
        "BusServices": [
            "151",
            "154",
            "154B",
            "184",
            "52",
            "61",
            "74",
            "75"
        ]
    },
    "12109": {
        "NAME": "Opp Ngee Ann Poly",
        "Longitude": 103.77801,
        "Latitude": 1.33082,
        "BusServices": [
            "151",
            "154",
            "184",
            "52",
            "61",
            "74",
            "75"
        ]
    },
    "12111": {
        "NAME": "Bef Clementi Rd",
        "Longitude": 103.77223,
        "Latitude": 1.31912,
        "BusServices": [
            "156",
            "165",
            "61",
            "7",
            "75"
        ]
    },
    "12119": {
        "NAME": "Police KINS Trg Camp",
        "Longitude": 103.77279,
        "Latitude": 1.31965,
        "BusServices": [
            "156",
            "165",
            "61",
            "7",
            "75",
            "7B"
        ]
    },
    "12121": {
        "NAME": "Blk 7",
        "Longitude": 103.78715,
        "Latitude": 1.31165,
        "BusServices": [
            "100",
            "111",
            "92",
            "92M"
        ]
    },
    "12129": {
        "NAME": "Blk 3",
        "Longitude": 103.78733,
        "Latitude": 1.31182,
        "BusServices": [
            "92",
            "92M"
        ]
    },
    "12131": {
        "NAME": "Aft Grove Ave",
        "Longitude": 103.78506,
        "Latitude": 1.31416,
        "BusServices": [
            "92",
            "92M"
        ]
    },
    "12139": {
        "NAME": "Aft Mt Sinai Lane",
        "Longitude": 103.78504,
        "Latitude": 1.31453,
        "BusServices": [
            "92",
            "92M"
        ]
    },
    "12141": {
        "NAME": "Opp Henry Pk",
        "Longitude": 103.78239,
        "Latitude": 1.31574,
        "BusServices": [
            "92",
            "92M"
        ]
    },
    "12149": {
        "NAME": "Henry Pk",
        "Longitude": 103.78266,
        "Latitude": 1.31577,
        "BusServices": [
            "92",
            "92M"
        ]
    },
    "12151": {
        "NAME": "Bef Moonbeam Terr",
        "Longitude": 103.78128,
        "Latitude": 1.31865,
        "BusServices": [
            "92",
            "92M"
        ]
    },
    "12169": {
        "NAME": "Pandan Valley",
        "Longitude": 103.77724,
        "Latitude": 1.31917,
        "BusServices": [
            "92",
            "92M"
        ]
    },
    "12179": {
        "NAME": "Montview",
        "Longitude": 103.77699,
        "Latitude": 1.3168,
        "BusServices": [
            "92",
            "92M"
        ]
    },
    "12189": {
        "NAME": "Bef Mt Sinai Dr",
        "Longitude": 103.78022,
        "Latitude": 1.31643,
        "BusServices": [
            "92",
            "92M"
        ]
    },
    "12199": {
        "NAME": "Opp Village Twr",
        "Longitude": 103.77821,
        "Latitude": 1.31548,
        "BusServices": [
            "92",
            "92M"
        ]
    },
    "12201": {
        "NAME": "LogisHub @ Clementi",
        "Longitude": 103.764,
        "Latitude": 1.32671,
        "BusServices": [
            "185",
            "189"
        ]
    },
    "12209": {
        "NAME": "Opp LogisHub @ Clementi",
        "Longitude": 103.7643,
        "Latitude": 1.32653,
        "BusServices": [
            "185",
            "189"
        ]
    },
    "12211": {
        "NAME": "Bef Mt Sinai Wk",
        "Longitude": 103.78071,
        "Latitude": 1.31721,
        "BusServices": [
            "92",
            "92M"
        ]
    },
    "13011": {
        "NAME": "Napier Stn Exit 2",
        "Longitude": 103.81932,
        "Latitude": 1.3065,
        "BusServices": [
            "105",
            "106",
            "123",
            "174",
            "174e",
            "7",
            "75",
            "77"
        ]
    },
    "13019": {
        "NAME": "Napier Stn Exit 1",
        "Longitude": 103.82013,
        "Latitude": 1.30674,
        "BusServices": [
            "105",
            "106",
            "123",
            "174",
            "174e",
            "7",
            "75",
            "77",
            "7B"
        ]
    },
    "13021": {
        "NAME": "Aft Min of Foreign Affairs",
        "Longitude": 103.81431,
        "Latitude": 1.30634,
        "BusServices": [
            "105",
            "106",
            "123",
            "174",
            "7",
            "75",
            "77"
        ]
    },
    "13029": {
        "NAME": "Bef Tyersall Ave",
        "Longitude": 103.81452,
        "Latitude": 1.30672,
        "BusServices": [
            "105",
            "106",
            "123",
            "174",
            "7",
            "75",
            "77",
            "7B"
        ]
    },
    "13031": {
        "NAME": "Opp Chatsworth Rd",
        "Longitude": 103.81707,
        "Latitude": 1.29913,
        "BusServices": [
            "111",
            "132"
        ]
    },
    "13039": {
        "NAME": "Bef Chatsworth Rd",
        "Longitude": 103.81744,
        "Latitude": 1.29982,
        "BusServices": [
            "111",
            "132"
        ]
    },
    "13041": {
        "NAME": "Aft Camp Rd",
        "Longitude": 103.81968,
        "Latitude": 1.30243,
        "BusServices": [
            "111",
            "132"
        ]
    },
    "13049": {
        "NAME": "Bef Rochalie Dr",
        "Longitude": 103.82045,
        "Latitude": 1.30262,
        "BusServices": [
            "111",
            "132"
        ]
    },
    "13051": {
        "NAME": "Opp Valley Pt",
        "Longitude": 103.82637,
        "Latitude": 1.29334,
        "BusServices": [
            "139",
            "14",
            "32",
            "65",
            "970"
        ]
    },
    "13059": {
        "NAME": "Valley Pt",
        "Longitude": 103.82663,
        "Latitude": 1.29328,
        "BusServices": [
            "139",
            "14",
            "32",
            "65",
            "970"
        ]
    },
    "13062": {
        "NAME": "Stellar RV",
        "Longitude": 103.82853,
        "Latitude": 1.29477,
        "BusServices": [
            "139",
            "32",
            "970"
        ]
    },
    "13063": {
        "NAME": "RV Suites",
        "Longitude": 103.82964,
        "Latitude": 1.29535,
        "BusServices": [
            "14",
            "65"
        ]
    },
    "13069": {
        "NAME": "RV Residences",
        "Longitude": 103.82881,
        "Latitude": 1.29488,
        "BusServices": [
            "139",
            "14",
            "32",
            "65",
            "970"
        ]
    },
    "13071": {
        "NAME": "Great World Stn Exit 5",
        "Longitude": 103.83294,
        "Latitude": 1.29634,
        "BusServices": [
            "139",
            "195",
            "32",
            "54"
        ]
    },
    "13079": {
        "NAME": "Great World Stn Exit 4",
        "Longitude": 103.83229,
        "Latitude": 1.29612,
        "BusServices": [
            "139",
            "195",
            "195A",
            "32",
            "54"
        ]
    },
    "13081": {
        "NAME": "St. Thomas Wk",
        "Longitude": 103.83624,
        "Latitude": 1.29591,
        "BusServices": [
            "139",
            "195",
            "32",
            "54"
        ]
    },
    "13089": {
        "NAME": "Opp St. Thomas Wk",
        "Longitude": 103.83604,
        "Latitude": 1.29575,
        "BusServices": [
            "139",
            "195",
            "195A",
            "32",
            "54"
        ]
    },
    "13091": {
        "NAME": "Aft Kim Yam Rd",
        "Longitude": 103.83938,
        "Latitude": 1.29593,
        "BusServices": [
            "139",
            "195",
            "32",
            "54"
        ]
    },
    "13099": {
        "NAME": "Bef Kim Yam Rd",
        "Longitude": 103.83961,
        "Latitude": 1.29578,
        "BusServices": [
            "139",
            "195",
            "195A",
            "32",
            "54"
        ]
    },
    "13101": {
        "NAME": "Opp Mohd Sultan Rd",
        "Longitude": 103.84231,
        "Latitude": 1.29414,
        "BusServices": [
            "139",
            "195",
            "32",
            "54"
        ]
    },
    "13109": {
        "NAME": "UE Sq/Bef Mohd Sultan Rd",
        "Longitude": 103.84272,
        "Latitude": 1.29351,
        "BusServices": [
            "139",
            "195",
            "195A",
            "32",
            "54"
        ]
    },
    "13119": {
        "NAME": "Opp Great World City",
        "Longitude": 103.83276,
        "Latitude": 1.29362,
        "BusServices": [
            "16",
            "16M",
            "175",
            "195",
            "195A",
            "5",
            "75",
            "970"
        ]
    },
    "13121": {
        "NAME": "Opp Great World City",
        "Longitude": 103.83084,
        "Latitude": 1.29409,
        "BusServices": [
            "16",
            "16M",
            "175",
            "195",
            "5",
            "75",
            "970"
        ]
    },
    "13139": {
        "NAME": "The Trillium",
        "Longitude": 103.83206,
        "Latitude": 1.29504,
        "BusServices": [
            "16",
            "16M",
            "175",
            "195",
            "195A",
            "5",
            "75",
            "970"
        ]
    },
    "13141": {
        "NAME": "Aft Zion Full Gospel Ch",
        "Longitude": 103.82998,
        "Latitude": 1.29764,
        "BusServices": [
            "14",
            "16",
            "16M",
            "175",
            "5",
            "54",
            "65",
            "75"
        ]
    },
    "13159": {
        "NAME": "Bef Zion Full Gospel Ch",
        "Longitude": 103.83053,
        "Latitude": 1.29796,
        "BusServices": [
            "14",
            "16",
            "16M",
            "175",
            "5",
            "54",
            "65",
            "75"
        ]
    },
    "13169": {
        "NAME": "Grange 80 Condo",
        "Longitude": 103.82839,
        "Latitude": 1.2991,
        "BusServices": [
            "75"
        ]
    },
    "13171": {
        "NAME": "Gramercy Pk",
        "Longitude": 103.82651,
        "Latitude": 1.29907,
        "BusServices": [
            "75"
        ]
    },
    "13179": {
        "NAME": "Cliveden At Grange",
        "Longitude": 103.82665,
        "Latitude": 1.29926,
        "BusServices": [
            "75"
        ]
    },
    "13181": {
        "NAME": "Aft One Tree Hill",
        "Longitude": 103.82403,
        "Latitude": 1.30023,
        "BusServices": [
            "75"
        ]
    },
    "13189": {
        "NAME": "Bef One Tree Hill",
        "Longitude": 103.82415,
        "Latitude": 1.30038,
        "BusServices": [
            "75"
        ]
    },
    "13191": {
        "NAME": "Opp Orchard Stn Exit 12",
        "Longitude": 103.82978,
        "Latitude": 1.30246,
        "BusServices": [
            "14",
            "16",
            "16M",
            "175",
            "5",
            "54",
            "65"
        ]
    },
    "13199": {
        "NAME": "Aft Orchard Stn Exit 12",
        "Longitude": 103.82988,
        "Latitude": 1.30213,
        "BusServices": [
            "14",
            "16",
            "16M",
            "175",
            "5",
            "54",
            "65"
        ]
    },
    "13201": {
        "NAME": "British High Commission",
        "Longitude": 103.8221,
        "Latitude": 1.30454,
        "BusServices": [
            "111",
            "132"
        ]
    },
    "13209": {
        "NAME": "Opp British High Comsn",
        "Longitude": 103.82206,
        "Latitude": 1.30403,
        "BusServices": [
            "111",
            "132"
        ]
    },
    "14009": {
        "NAME": "HarbourFront Int",
        "Longitude": 103.81901,
        "Latitude": 1.26704,
        "BusServices": [
            "123M",
            "123M",
            "124",
            "124",
            "188",
            "188",
            "188e",
            "65",
            "65",
            "80",
            "80",
            "855",
            "855",
            "93",
            "93",
            "963",
            "963",
            "963e",
            "963e"
        ]
    },
    "14011": {
        "NAME": "Bef Mt Faber Lodge",
        "Longitude": 103.82553,
        "Latitude": 1.26795,
        "BusServices": [
            "123",
            "123M",
            "143",
            "166",
            "61",
            "65",
            "855"
        ]
    },
    "14019": {
        "NAME": "Opp Mt Faber Lodge",
        "Longitude": 103.82572,
        "Latitude": 1.26849,
        "BusServices": [
            "123",
            "123M",
            "143",
            "166",
            "61",
            "65",
            "855"
        ]
    },
    "14021": {
        "NAME": "The Pearl @ Mt Faber",
        "Longitude": 103.82478,
        "Latitude": 1.27133,
        "BusServices": [
            "123",
            "123M",
            "124",
            "65",
            "855"
        ]
    },
    "14029": {
        "NAME": "Blk 105",
        "Longitude": 103.82419,
        "Latitude": 1.27247,
        "BusServices": [
            "123",
            "123M",
            "124",
            "65",
            "855"
        ]
    },
    "14031": {
        "NAME": "St. Theresa's Convent",
        "Longitude": 103.82306,
        "Latitude": 1.27624,
        "BusServices": [
            "121",
            "123",
            "123M",
            "131",
            "195",
            "195A",
            "65",
            "855"
        ]
    },
    "14039": {
        "NAME": "Opp St. Theresa's Convent",
        "Longitude": 103.82346,
        "Latitude": 1.27664,
        "BusServices": [
            "121",
            "123",
            "123M",
            "131",
            "195",
            "195A",
            "65",
            "855"
        ]
    },
    "14041": {
        "NAME": "Blk 54",
        "Longitude": 103.81247,
        "Latitude": 1.27327,
        "BusServices": [
            "120",
            "131",
            "145",
            "176",
            "273"
        ]
    },
    "14049": {
        "NAME": "Opp Blk 55",
        "Longitude": 103.81304,
        "Latitude": 1.27324,
        "BusServices": [
            "120",
            "131",
            "145",
            "176"
        ]
    },
    "14051": {
        "NAME": "Aft Telok Blangah Hts",
        "Longitude": 103.81516,
        "Latitude": 1.27585,
        "BusServices": [
            "124",
            "131",
            "145",
            "176",
            "273"
        ]
    },
    "14059": {
        "NAME": "Bef Telok Blangah Hts",
        "Longitude": 103.81561,
        "Latitude": 1.27603,
        "BusServices": [
            "124",
            "131",
            "145",
            "176",
            "273"
        ]
    },
    "14061": {
        "NAME": "Opp Former Railway Stn",
        "Longitude": 103.83862,
        "Latitude": 1.27231,
        "BusServices": [
            "10",
            "100",
            "131",
            "145",
            "30",
            "57",
            "80",
            "97",
            "97e"
        ]
    },
    "14069": {
        "NAME": "Former Railway Stn",
        "Longitude": 103.83641,
        "Latitude": 1.27254,
        "BusServices": [
            "10",
            "100",
            "131",
            "145",
            "30",
            "57",
            "80",
            "97",
            "97e"
        ]
    },
    "14071": {
        "NAME": "Keppel Workshop",
        "Longitude": 103.8339,
        "Latitude": 1.2722,
        "BusServices": [
            "10",
            "100",
            "131",
            "145",
            "30",
            "57",
            "80",
            "97"
        ]
    },
    "14081": {
        "NAME": "Tg Pagar DP Blk F5",
        "Longitude": 103.83089,
        "Latitude": 1.2709,
        "BusServices": [
            "10",
            "100",
            "131",
            "145",
            "30",
            "57",
            "80",
            "97"
        ]
    },
    "14089": {
        "NAME": "Opp Tg Pagar DP Blk F5",
        "Longitude": 103.82979,
        "Latitude": 1.27046,
        "BusServices": [
            "10",
            "100",
            "131",
            "145",
            "30",
            "57",
            "80",
            "97"
        ]
    },
    "14101": {
        "NAME": "Opp Keppel DP Blk 517",
        "Longitude": 103.82826,
        "Latitude": 1.26838,
        "BusServices": [
            "10",
            "100",
            "131",
            "145",
            "30",
            "57",
            "80",
            "97"
        ]
    },
    "14109": {
        "NAME": "Keppel DP Blk 517",
        "Longitude": 103.82722,
        "Latitude": 1.26805,
        "BusServices": [
            "10",
            "100",
            "131",
            "145",
            "30",
            "57",
            "80",
            "97"
        ]
    },
    "14119": {
        "NAME": "Opp VivoCity",
        "Longitude": 103.82228,
        "Latitude": 1.26592,
        "BusServices": [
            "10",
            "100",
            "123M",
            "131",
            "143",
            "145",
            "166",
            "30",
            "30e",
            "57",
            "61",
            "65",
            "80",
            "855",
            "97",
            "97e"
        ]
    },
    "14121": {
        "NAME": "Opp HarbourFront Int",
        "Longitude": 103.81926,
        "Latitude": 1.26591,
        "BusServices": [
            "10",
            "100",
            "131",
            "143",
            "145",
            "166",
            "30",
            "30e",
            "57",
            "61",
            "97",
            "97e"
        ]
    },
    "14129": {
        "NAME": "HarbourFront Stn Exit A",
        "Longitude": 103.81978,
        "Latitude": 1.26608,
        "BusServices": [
            "10",
            "100",
            "123M",
            "131",
            "143",
            "145",
            "166",
            "30",
            "30e",
            "57",
            "61",
            "65",
            "80",
            "855",
            "97",
            "97e"
        ]
    },
    "14131": {
        "NAME": "Caribbean at Keppel Bay",
        "Longitude": 103.81675,
        "Latitude": 1.2674,
        "BusServices": [
            "10",
            "100",
            "124",
            "131",
            "143",
            "145",
            "166",
            "188",
            "30",
            "57",
            "61",
            "93",
            "963",
            "97"
        ]
    },
    "14139": {
        "NAME": "Bef Seah Im Rd",
        "Longitude": 103.81547,
        "Latitude": 1.26864,
        "BusServices": [
            "10",
            "100",
            "124",
            "131",
            "143",
            "145",
            "166",
            "188",
            "30",
            "57",
            "61",
            "93",
            "963",
            "97"
        ]
    },
    "14141": {
        "NAME": "HarbourFront Stn/Vivocity",
        "Longitude": 103.82211,
        "Latitude": 1.26552,
        "BusServices": [
            "10",
            "100",
            "123M",
            "131",
            "143",
            "145",
            "166",
            "30",
            "30e",
            "57",
            "61",
            "65",
            "80",
            "855",
            "97",
            "97e"
        ]
    },
    "14151": {
        "NAME": "Opp Chr Community Chapel",
        "Longitude": 103.81294,
        "Latitude": 1.26965,
        "BusServices": [
            "10",
            "100",
            "124",
            "131",
            "143",
            "145",
            "166",
            "188",
            "30",
            "57",
            "61",
            "93",
            "963",
            "97"
        ]
    },
    "14159": {
        "NAME": "Bef Chr Community Chapel",
        "Longitude": 103.81315,
        "Latitude": 1.26994,
        "BusServices": [
            "10",
            "100",
            "124",
            "131",
            "143",
            "145",
            "166",
            "188",
            "30",
            "57",
            "61",
            "93",
            "963",
            "97"
        ]
    },
    "14161": {
        "NAME": "Telok Blangah Stn",
        "Longitude": 103.8101,
        "Latitude": 1.27076,
        "BusServices": [
            "10",
            "100",
            "120",
            "143",
            "166",
            "176",
            "188",
            "30",
            "57",
            "61",
            "93",
            "963",
            "97",
            "97e"
        ]
    },
    "14169": {
        "NAME": "Opp Telok Blangah Stn",
        "Longitude": 103.80942,
        "Latitude": 1.27119,
        "BusServices": [
            "10",
            "100",
            "120",
            "143",
            "166",
            "176",
            "188",
            "30",
            "57",
            "61",
            "93",
            "963",
            "97",
            "97e"
        ]
    },
    "14171": {
        "NAME": "Opp Yeo's Bldg",
        "Longitude": 103.80655,
        "Latitude": 1.27146,
        "BusServices": [
            "10",
            "100",
            "120",
            "143",
            "166",
            "176",
            "188",
            "30",
            "57",
            "61",
            "93",
            "963",
            "97"
        ]
    },
    "14179": {
        "NAME": "Yeo's Bldg",
        "Longitude": 103.8063,
        "Latitude": 1.27188,
        "BusServices": [
            "10",
            "100",
            "120",
            "143",
            "166",
            "176",
            "188",
            "30",
            "57",
            "61",
            "93",
            "963",
            "97"
        ]
    },
    "14189": {
        "NAME": "Aft Alexandra Rd",
        "Longitude": 103.80398,
        "Latitude": 1.27269,
        "BusServices": [
            "10",
            "100",
            "120",
            "143",
            "166",
            "176",
            "188",
            "30",
            "57",
            "61",
            "93",
            "963",
            "97"
        ]
    },
    "14191": {
        "NAME": "Blk 105 CP",
        "Longitude": 103.81211,
        "Latitude": 1.28122,
        "BusServices": [
            "175",
            "195",
            "195A",
            "57"
        ]
    },
    "14199": {
        "NAME": "Blk 118",
        "Longitude": 103.81275,
        "Latitude": 1.28132,
        "BusServices": [
            "175",
            "195",
            "195A",
            "57"
        ]
    },
    "14201": {
        "NAME": "Blk 110",
        "Longitude": 103.80915,
        "Latitude": 1.28167,
        "BusServices": [
            "175",
            "195",
            "195A",
            "57"
        ]
    },
    "14209": {
        "NAME": "Aft Hewlett Packard",
        "Longitude": 103.80959,
        "Latitude": 1.28176,
        "BusServices": [
            "175",
            "195",
            "195A",
            "57"
        ]
    },
    "14211": {
        "NAME": "ISS Intl Sch",
        "Longitude": 103.80522,
        "Latitude": 1.28161,
        "BusServices": [
            "175",
            "195",
            "195A",
            "57"
        ]
    },
    "14219": {
        "NAME": "Opp Blk 114",
        "Longitude": 103.80685,
        "Latitude": 1.28219,
        "BusServices": [
            "175",
            "195",
            "195A",
            "57"
        ]
    },
    "14221": {
        "NAME": "Opp St. Teresa's Ch",
        "Longitude": 103.82893,
        "Latitude": 1.27359,
        "BusServices": [
            "124",
            "143",
            "166",
            "61"
        ]
    },
    "14229": {
        "NAME": "St. Teresa's Ch",
        "Longitude": 103.82858,
        "Latitude": 1.27371,
        "BusServices": [
            "124",
            "143",
            "166",
            "61"
        ]
    },
    "14231": {
        "NAME": "Keppel DP Blk 519",
        "Longitude": 103.82667,
        "Latitude": 1.27101,
        "BusServices": [
            "124",
            "143",
            "166",
            "61"
        ]
    },
    "14239": {
        "NAME": "Opp Keppel DP Blk 519",
        "Longitude": 103.82714,
        "Latitude": 1.27178,
        "BusServices": [
            "124",
            "143",
            "166",
            "61"
        ]
    },
    "14241": {
        "NAME": "Opp Blk 1",
        "Longitude": 103.81687,
        "Latitude": 1.27914,
        "BusServices": [
            "145",
            "175",
            "176",
            "195",
            "195A",
            "272",
            "273",
            "57"
        ]
    },
    "14249": {
        "NAME": "Blk 1",
        "Longitude": 103.8173,
        "Latitude": 1.27927,
        "BusServices": [
            "145",
            "145A",
            "176",
            "195",
            "195A",
            "272",
            "273"
        ]
    },
    "14259": {
        "NAME": "Blk 11",
        "Longitude": 103.81866,
        "Latitude": 1.27785,
        "BusServices": [
            "121",
            "272"
        ]
    },
    "14269": {
        "NAME": "Blk 10",
        "Longitude": 103.81999,
        "Latitude": 1.27758,
        "BusServices": [
            "121",
            "272"
        ]
    },
    "14271": {
        "NAME": "Al-Amin Mque",
        "Longitude": 103.81915,
        "Latitude": 1.27568,
        "BusServices": [
            "124",
            "131",
            "195",
            "195A"
        ]
    },
    "14279": {
        "NAME": "Blk 25",
        "Longitude": 103.81921,
        "Latitude": 1.27592,
        "BusServices": [
            "121",
            "124",
            "131",
            "195",
            "195A",
            "272"
        ]
    },
    "14281": {
        "NAME": "Safra Mt Faber",
        "Longitude": 103.81804,
        "Latitude": 1.277,
        "BusServices": [
            "124",
            "131",
            "195",
            "195A"
        ]
    },
    "14291": {
        "NAME": "Blk 27",
        "Longitude": 103.82133,
        "Latitude": 1.27468,
        "BusServices": [
            "121",
            "124",
            "131",
            "195",
            "195A",
            "272"
        ]
    },
    "14299": {
        "NAME": "Opp Blk 27",
        "Longitude": 103.82127,
        "Latitude": 1.27489,
        "BusServices": [
            "124",
            "131",
            "195",
            "195A"
        ]
    },
    "14309": {
        "NAME": "Blk 41",
        "Longitude": 103.82303,
        "Latitude": 1.27129,
        "BusServices": [
            "121",
            "272"
        ]
    },
    "14319": {
        "NAME": "Blk 28",
        "Longitude": 103.82064,
        "Latitude": 1.27348,
        "BusServices": [
            "121",
            "272"
        ]
    },
    "14329": {
        "NAME": "Blk 67",
        "Longitude": 103.80943,
        "Latitude": 1.27455,
        "BusServices": [
            "120",
            "273"
        ]
    },
    "14331": {
        "NAME": "Opp Blk 70B",
        "Longitude": 103.81107,
        "Latitude": 1.27695,
        "BusServices": [
            "120",
            "124"
        ]
    },
    "14339": {
        "NAME": "Blk 70A",
        "Longitude": 103.81125,
        "Latitude": 1.27666,
        "BusServices": [
            "120",
            "124",
            "273"
        ]
    },
    "14341": {
        "NAME": "Opp Blk 59",
        "Longitude": 103.81347,
        "Latitude": 1.27593,
        "BusServices": [
            "120",
            "124"
        ]
    },
    "14349": {
        "NAME": "Blk 59",
        "Longitude": 103.8134,
        "Latitude": 1.27579,
        "BusServices": [
            "120",
            "124",
            "273"
        ]
    },
    "14351": {
        "NAME": "Aft Blk 48",
        "Longitude": 103.81036,
        "Latitude": 1.27275,
        "BusServices": [
            "124"
        ]
    },
    "14359": {
        "NAME": "Blk 50",
        "Longitude": 103.81035,
        "Latitude": 1.27289,
        "BusServices": [
            "124",
            "273"
        ]
    },
    "14369": {
        "NAME": "The Interlace",
        "Longitude": 103.80366,
        "Latitude": 1.28154,
        "BusServices": [
            "175",
            "195",
            "195A",
            "57"
        ]
    },
    "14379": {
        "NAME": "Blk 40",
        "Longitude": 103.82379,
        "Latitude": 1.27244,
        "BusServices": [
            "121",
            "123",
            "123M",
            "124",
            "272",
            "65",
            "855"
        ]
    },
    "14381": {
        "NAME": "Blk 109",
        "Longitude": 103.82554,
        "Latitude": 1.27413,
        "BusServices": [
            "123",
            "123",
            "123M",
            "123M",
            "131",
            "131"
        ]
    },
    "14389": {
        "NAME": "Opp Blk 109",
        "Longitude": 103.82501,
        "Latitude": 1.27428,
        "BusServices": [
            "123",
            "123",
            "123M",
            "123M",
            "131",
            "131"
        ]
    },
    "14391": {
        "NAME": "Opp Blk 85",
        "Longitude": 103.80859,
        "Latitude": 1.27791,
        "BusServices": [
            "120",
            "124"
        ]
    },
    "14399": {
        "NAME": "Blk 85",
        "Longitude": 103.80859,
        "Latitude": 1.27764,
        "BusServices": [
            "124",
            "273"
        ]
    },
    "14471": {
        "NAME": "Blk 114",
        "Longitude": 103.80665,
        "Latitude": 1.28201,
        "BusServices": [
            "175",
            "195",
            "195A",
            "57"
        ]
    },
    "14489": {
        "NAME": "Blk 36 Mkt/FC",
        "Longitude": 103.82159,
        "Latitude": 1.27238,
        "BusServices": [
            "121",
            "272"
        ]
    },
    "14491": {
        "NAME": "Opp Telok Blangah Mkt/FC",
        "Longitude": 103.80795,
        "Latitude": 1.27279,
        "BusServices": [
            "120",
            "124"
        ]
    },
    "14499": {
        "NAME": "Telok Blangah Mkt/FC",
        "Longitude": 103.80782,
        "Latitude": 1.27291,
        "BusServices": [
            "124"
        ]
    },
    "14501": {
        "NAME": "Opp Blk 91A",
        "Longitude": 103.80648,
        "Latitude": 1.27687,
        "BusServices": [
            "120",
            "124"
        ]
    },
    "14509": {
        "NAME": "Blk 92B",
        "Longitude": 103.80681,
        "Latitude": 1.27565,
        "BusServices": [
            "124"
        ]
    },
    "14519": {
        "NAME": "Resorts World Sentosa",
        "Longitude": 103.8257,
        "Latitude": 1.25352,
        "BusServices": [
            "123"
        ]
    },
    "14521": {
        "NAME": "Village Hotel",
        "Longitude": 103.82043,
        "Latitude": 1.2536,
        "BusServices": [
            "123"
        ]
    },
    "14529": {
        "NAME": "Opp Village Hotel",
        "Longitude": 103.82122,
        "Latitude": 1.25323,
        "BusServices": [
            "123"
        ]
    },
    "14539": {
        "NAME": "Beach Station Bus Terminal",
        "Longitude": 103.81855,
        "Latitude": 1.25143,
        "BusServices": [
            "123",
            "123"
        ]
    },
    "15041": {
        "NAME": "Alexandra Retail Ctr",
        "Longitude": 103.80189,
        "Latitude": 1.27463,
        "BusServices": [
            "100",
            "120",
            "166",
            "175",
            "51",
            "57",
            "61",
            "93",
            "963",
            "963e",
            "97",
            "97e"
        ]
    },
    "15049": {
        "NAME": "Opp Alexandra Retail Ctr",
        "Longitude": 103.80216,
        "Latitude": 1.27459,
        "BusServices": [
            "100",
            "120",
            "166",
            "175",
            "51",
            "57",
            "61",
            "93",
            "963",
            "963e",
            "97",
            "97e"
        ]
    },
    "15051": {
        "NAME": "Alexandra Pt",
        "Longitude": 103.80238,
        "Latitude": 1.27698,
        "BusServices": [
            "100",
            "120",
            "166",
            "175",
            "51",
            "57",
            "61",
            "93",
            "963",
            "963e",
            "97",
            "97e"
        ]
    },
    "15059": {
        "NAME": "Opp Alexandra Pt",
        "Longitude": 103.8027,
        "Latitude": 1.27686,
        "BusServices": [
            "100",
            "120",
            "166",
            "175",
            "51",
            "57",
            "61",
            "93",
            "963",
            "963e",
            "97",
            "97e"
        ]
    },
    "15071": {
        "NAME": "Opp Lor Sarhad",
        "Longitude": 103.78701,
        "Latitude": 1.28142,
        "BusServices": [
            "200"
        ]
    },
    "15079": {
        "NAME": "Aft Lor Sarhad",
        "Longitude": 103.78683,
        "Latitude": 1.28078,
        "BusServices": [
            "200",
            "200A"
        ]
    },
    "15091": {
        "NAME": "Opp Natl Leadership Inst",
        "Longitude": 103.78781,
        "Latitude": 1.28291,
        "BusServices": [
            "200"
        ]
    },
    "15099": {
        "NAME": "Natl Leadership Inst",
        "Longitude": 103.78789,
        "Latitude": 1.28306,
        "BusServices": [
            "200",
            "200A"
        ]
    },
    "15101": {
        "NAME": "Opp LP 31",
        "Longitude": 103.78562,
        "Latitude": 1.28618,
        "BusServices": [
            "200"
        ]
    },
    "15109": {
        "NAME": "LP 30",
        "Longitude": 103.78581,
        "Latitude": 1.28592,
        "BusServices": [
            "200",
            "200A"
        ]
    },
    "15111": {
        "NAME": "Sci Pk 2/The Galen",
        "Longitude": 103.78484,
        "Latitude": 1.28676,
        "BusServices": [
            "200"
        ]
    },
    "15119": {
        "NAME": "Opp Sci Pk 2/The Galen",
        "Longitude": 103.78501,
        "Latitude": 1.28704,
        "BusServices": [
            "200",
            "200A"
        ]
    },
    "15121": {
        "NAME": "Sci Pk 2/The Gemini",
        "Longitude": 103.78373,
        "Latitude": 1.28894,
        "BusServices": [
            "200"
        ]
    },
    "15129": {
        "NAME": "Opp Sci Pk 2/The Gemini",
        "Longitude": 103.78402,
        "Latitude": 1.28916,
        "BusServices": [
            "200",
            "200A"
        ]
    },
    "15131": {
        "NAME": "Kent Ridge Stn",
        "Longitude": 103.78449,
        "Latitude": 1.29254,
        "BusServices": [
            "200",
            "92"
        ]
    },
    "15139": {
        "NAME": "Kent Ridge Stn Exit B",
        "Longitude": 103.78458,
        "Latitude": 1.29241,
        "BusServices": [
            "200",
            "200A",
            "92"
        ]
    },
    "15141": {
        "NAME": "Labrador Pk Stn",
        "Longitude": 103.80096,
        "Latitude": 1.27276,
        "BusServices": [
            "10",
            "143",
            "175",
            "176",
            "188",
            "30",
            "30e",
            "51"
        ]
    },
    "15149": {
        "NAME": "Opp Labrador Pk Stn",
        "Longitude": 103.80056,
        "Latitude": 1.27342,
        "BusServices": [
            "10",
            "143",
            "175",
            "176",
            "188",
            "188e",
            "30",
            "30e",
            "51"
        ]
    },
    "15151": {
        "NAME": "Opp Mapletree Biz City",
        "Longitude": 103.79822,
        "Latitude": 1.27389,
        "BusServices": [
            "10",
            "143",
            "175",
            "176",
            "188",
            "30",
            "30e",
            "51"
        ]
    },
    "15159": {
        "NAME": "Mapletree Business City",
        "Longitude": 103.79839,
        "Latitude": 1.27426,
        "BusServices": [
            "10",
            "143",
            "175",
            "176",
            "188",
            "188e",
            "30",
            "30e",
            "51"
        ]
    },
    "15161": {
        "NAME": "Opp HarbourSide Bldg 2",
        "Longitude": 103.79666,
        "Latitude": 1.27444,
        "BusServices": [
            "10",
            "143",
            "175",
            "176",
            "188",
            "30",
            "30e",
            "51"
        ]
    },
    "15169": {
        "NAME": "HarbourSide Bldg 2",
        "Longitude": 103.79674,
        "Latitude": 1.27481,
        "BusServices": [
            "10",
            "143",
            "175",
            "176",
            "188",
            "188e",
            "30",
            "30e",
            "51"
        ]
    },
    "15181": {
        "NAME": "Opp Ascent",
        "Longitude": 103.78541,
        "Latitude": 1.29108,
        "BusServices": [
            "92"
        ]
    },
    "15189": {
        "NAME": "Ascent",
        "Longitude": 103.7855,
        "Latitude": 1.2908,
        "BusServices": [
            "92"
        ]
    },
    "15191": {
        "NAME": "Pasir Panjang Stn/FC",
        "Longitude": 103.79264,
        "Latitude": 1.27581,
        "BusServices": [
            "10",
            "143",
            "175",
            "176",
            "188",
            "30",
            "51"
        ]
    },
    "15199": {
        "NAME": "Opp Currency Hse",
        "Longitude": 103.79318,
        "Latitude": 1.27604,
        "BusServices": [
            "10",
            "143",
            "175",
            "176",
            "188",
            "188e",
            "30",
            "51"
        ]
    },
    "15201": {
        "NAME": "Aft Pasir Panjang Stn",
        "Longitude": 103.78971,
        "Latitude": 1.27681,
        "BusServices": [
            "10",
            "143",
            "175",
            "176",
            "188",
            "30",
            "30e",
            "51"
        ]
    },
    "15209": {
        "NAME": "Bef Pasir Panjang Stn",
        "Longitude": 103.79023,
        "Latitude": 1.27707,
        "BusServices": [
            "10",
            "143",
            "175",
            "176",
            "188",
            "30",
            "30e",
            "51"
        ]
    },
    "15211": {
        "NAME": "Opp Pasir View Pk",
        "Longitude": 103.78643,
        "Latitude": 1.27792,
        "BusServices": [
            "175",
            "176"
        ]
    },
    "15219": {
        "NAME": "Pasir View Pk",
        "Longitude": 103.78701,
        "Latitude": 1.27818,
        "BusServices": [
            "10",
            "143",
            "175",
            "176",
            "188",
            "30",
            "51"
        ]
    },
    "15221": {
        "NAME": "Aft Sth Buona Vista Rd",
        "Longitude": 103.78549,
        "Latitude": 1.2795,
        "BusServices": [
            "10",
            "143",
            "188",
            "200",
            "200A",
            "30",
            "51"
        ]
    },
    "15229": {
        "NAME": "Bef Sth Buona Vista Rd",
        "Longitude": 103.78573,
        "Latitude": 1.27938,
        "BusServices": [
            "10",
            "143",
            "188",
            "200",
            "30",
            "51"
        ]
    },
    "16009": {
        "NAME": "Kent Ridge Ter",
        "Longitude": 103.76988,
        "Latitude": 1.29425,
        "BusServices": [
            "10",
            "10",
            "151",
            "151",
            "200",
            "200A",
            "201",
            "201",
            "33",
            "33",
            "33A",
            "95",
            "95",
            "95B"
        ]
    },
    "16011": {
        "NAME": "Opp Haw Par Villa Stn",
        "Longitude": 103.78187,
        "Latitude": 1.28278,
        "BusServices": [
            "10",
            "143",
            "188",
            "200",
            "200A",
            "30",
            "30e",
            "51"
        ]
    },
    "16019": {
        "NAME": "Haw Par Villa Stn",
        "Longitude": 103.78218,
        "Latitude": 1.28278,
        "BusServices": [
            "10",
            "143",
            "188",
            "200",
            "30",
            "30e",
            "51"
        ]
    },
    "16021": {
        "NAME": "Opp Gloria Mansion",
        "Longitude": 103.77981,
        "Latitude": 1.28626,
        "BusServices": [
            "10",
            "143",
            "188",
            "200",
            "200A",
            "30",
            "51"
        ]
    },
    "16029": {
        "NAME": "Gloria Mansion",
        "Longitude": 103.78022,
        "Latitude": 1.28608,
        "BusServices": [
            "10",
            "143",
            "188",
            "200",
            "30",
            "51"
        ]
    },
    "16031": {
        "NAME": "Opp S'pore Science Pk II",
        "Longitude": 103.77846,
        "Latitude": 1.28801,
        "BusServices": [
            "10",
            "143",
            "188",
            "200",
            "200A",
            "30",
            "30e",
            "51"
        ]
    },
    "16039": {
        "NAME": "S'pore Science Pk II",
        "Longitude": 103.77872,
        "Latitude": 1.28799,
        "BusServices": [
            "10",
            "143",
            "188",
            "200",
            "30",
            "30e",
            "51"
        ]
    },
    "16041": {
        "NAME": "Opp Luxe Ville",
        "Longitude": 103.7766,
        "Latitude": 1.28931,
        "BusServices": [
            "10",
            "143",
            "183",
            "188",
            "200",
            "200A",
            "30",
            "51"
        ]
    },