[{"longitude":103.769924,"latitude":1.29453,"name":"KRB"},{"longitude":103.772688,"latitude":1.297204,"name":"IT"},{"longitude":103.77412,"latitude":1.298904,"name":"YIH-OPP"},{"longitude":103.77369,"latitude":1.301081,"name":"MUSEUM"},{"longitude":103.776103,"latitude":1.29891,"name":"UHC"},{"longitude":103.778088,"latitude":1.297574,"name":"UHALL-OPP"},{"longitude":103.780718,"latitude":1.297477,"name":"S17"},{"longitude":103.784556,"latitude":1.294962,"name":"KR-MRT-OPP"},{"longitude":103.781185,"latitude":1.291016,"name":"PGPR"},{"longitude":103.776898,"latitude":1.293654,"name":"TCOMS"},{"longitude":103.774978,"latitude":1.292798,"name":"HSSML-OPP"},{"longitude":103.772618,"latitude":1.293208,"name":"NUSS-OPP"},{"longitude":103.770617,"latitude":1.29534,"name":"LT13-OPP"},{"longitude":103.769924,"latitude":1.29453,"name":"KRB"}]