[{"longitude":103.775217,"latitude":1.294431,"name":"COM3"},{"longitude":103.774978,"latitude":1.292798,"name":"HSSML-OPP"},{"longitude":103.772618,"latitude":1.293208,"name":"NUSS-OPP"},{"longitude":103.770617,"latitude":1.29534,"name":"LT13-OPP"},{"longitude":103.772688,"latitude":1.297204,"name":"IT"},{"longitude":103.77412,"latitude":1.298904,"name":"YIH-OPP"},{"longitude":103.77369,"latitude":1.301081,"name":"MUSEUM"},{"longitude":103.774688,"latitude":1.303653,"name":"UTOWN"},{"longitude":103.774377,"latitude":1.298885,"name":"YIH"},{"longitude":103.772569,"latitude":1.296544,"name":"CLB"},{"longitude":103.770635,"latitude":1.294552,"name":"LT13"},{"longitude":103.771475,"latitude":1.293619,"name":"AS5"},{"longitude":103.775068,"latitude":1.293223,"name":"BIZ2"},{"longitude":103.775217,"latitude":1.294431,"name":"COM3"}]