[{"longitude":103.780419,"latitude":1.291765,"name":"PGP"},{"longitude":103.784439,"latitude":1.29483,"name":"KR-MRT"},{"longitude":103.780941,"latitude":1.297421,"name":"LT27"},{"longitude":103.778075,"latitude":1.297372,"name":"UHALL"},{"longitude":103.77563,"latitude":1.298786,"name":"UHC-OPP"},{"longitude":103.774377,"latitude":1.298885,"name":"YIH"},{"longitude":103.772569,"latitude":1.296544,"name":"CLB"},{"longitude":103.769603,"latitude":1.297799,"name":"SDE3-OPP"},{"longitude":103.769904,"latitude":1.30077,"name":"JP-SCH-16151"},{"longitude":103.769455,"latitude":1.301899,"name":"KV"},{"longitude":103.77369,"latitude":1.301081,"name":"MUSEUM"},{"longitude":103.776103,"latitude":1.29891,"name":"UHC"},{"longitude":103.778088,"latitude":1.297574,"name":"UHALL-OPP"},{"longitude":103.780718,"latitude":1.297477,"name":"S17"},{"longitude":103.784556,"latitude":1.294962,"name":"KR-MRT-OPP"},{"longitude":103.781185,"latitude":1.291016,"name":"PGPR"}]